{
  "id": "teatime",
  "name": "ä¸‹åˆèŒ¶",
  "icon": "ğŸ§‹",
  "items": [
    {
      "id": "teatime1",
      "title": "å¤©ä»èŒ—èŒ¶",
      "image": "./teatimeimages/tm1.jpg",
      "description": "ç²¾é¸ç¾æ³¡èŒ¶è‘‰ â€¢ å°ˆæ¥­èª¿èŒ¶å¸«<br>ç¶“å…¸åŸèŒ¶ã€é†‡èœœç³»åˆ—ã€å¥¶èŒ¶é¡ç­‰",
      "details": {
        "address": "å—å´è·¯äºŒæ®µ123è™Ÿ",
        "hours": "10:00 - 22:00",
        "features": "ç¶“å…¸ç¾æ³¡èŒ¶è‘‰ï¼Œå°ˆæ¥­èª¿èŒ¶å¸«ç²¾å¿ƒè£½ä½œ"
      }
    },
    {
      "id": "teatime2",
      "title": "å…ˆå–é“",
      "image": "./teatimeimages/tm2.jpg",
      "description": "ç²¾ç·»èŒ¶å“ â€¢ å°ˆæ¥­èª¿é…<br>èŠåœ’å¥½èŒ¶ã€ç³¯å³¶é¾ã€ç²¾é¸å¥¶èŒ¶ç­‰",
      "details": {
        "address": "æ–°ç”Ÿè·¯456è™Ÿ",
        "hours": "11:00 - 21:30",
        "features": "ç²¾ç·»èŒ¶å“å°ˆæ¥­èª¿é…ï¼Œåš´é¸ä¸Šç­‰èŒ¶è‘‰"
      }
    },
    {
      "id": "teatime3",
      "title": "å¯ä¸å¯ç†Ÿæˆç´…èŒ¶",
      "image": "./teatimeimages/tm3.jpg",
      "description": "æ‰‹æ–é£²å“ â€¢ æ–°é®®ç¾èª¿<br>ç‰¹èª¿èŒ¶é£²ã€é®®å¥¶ç³»åˆ—",
      "details": {
        "address": "ä¸­æ­£è·¯789è™Ÿ",
        "hours": "10:00 - 21:00",
        "features": "ä½¿ç”¨å„ªè³ªèŒ¶è‘‰ï¼Œæ¯æ—¥æ–°é®®èª¿è£½ï¼Œæä¾›å¤šæ¨£åŒ–çš„ç‰¹èª¿é£²å“"
      }
    },
    {
      "id": "teatime4",
      "title": "é®®Q",
      "image": "./teatimeimages/tm4.jpg",
      "description": "ç†ŸæˆèŒ¶å“ â€¢ ç¨ç‰¹é¢¨å‘³<br>ç†Ÿæˆç´…èŒ¶ã€ç‰¹èª¿ç³»åˆ—",
      "details": {
        "address": "æ–°ç”Ÿè·¯234è™Ÿ",
        "hours": "11:00 - 22:00",
        "features": "æ¡ç”¨ç¨ç‰¹ç†Ÿæˆå·¥æ³•ï¼Œæ‰“é€ é†‡åšèŒ¶é¦™ï¼Œæä¾›å¤šæ¬¾ç‰¹è‰²èŒ¶é£²"
      }
    },
    {
      "id": "teatime5",
      "title": "ç‰æ´¥",
      "image": "./teatimeimages/tm5.jpg",
      "description": "",
      "details": {
        "address": "338æ¡ƒåœ’å¸‚è˜†ç«¹å€å¿ å­è¥¿è·¯16è™Ÿ",
        "hours": "07:00 - 21:30",
        "features": ""
      }
    }
  ]
}
